[
  {"nom": "Nantes (residence actuelle)", "annee": 2026, "latitude": 47.2184, "longitude": -1.5536},
  {"nom": "Angers (famille, week-ends)", "annee": 2026, "latitude": 47.4784, "longitude": -0.5632},
  {"nom": "Kumluca, Antalya (Turquie)", "annee": 2026, "latitude": 36.3703, "longitude": 30.2864},
  {"nom": "Antalya (Turquie)", "annee": 2026, "latitude": 36.8969, "longitude": 30.7133},
  {"nom": "Disneyland Paris", "annee": 2026, "latitude": 48.8672, "longitude": 2.7833},
  {"nom": "Ferizaj (Kosovo)", "annee": 2026, "latitude": 42.3706, "longitude": 21.1550},
  {"nom": "Prizren (Kosovo)", "annee": 2026, "latitude": 42.2139, "longitude": 20.7397},
  {"nom": "Tirana (Albanie)", "annee": 2026, "latitude": 41.3275, "longitude": 19.8187}
]
